[
  {
    "s_city_id": 238,
    "s_city": "Hechi",
    "s_lat": 23.09653465,
    "s_lon": 109.6091129,
    "s_pop": 3275189.5,
    "s_country": "China",
    "s_Volume": 291099,
    "e_city_id": 1,
    "e_City": "Sarh",
    "e_lat": 9.149969909,
    "e_lon": 18.39002966,
    "e_pop": 135862,
    "e_country": "Chad",
    "e_vol": 1
  },
  {
    "s_city_id": 238,
    "s_city": "Hechi",
    "s_lat": 23.09653465,
    "s_lon": 109.6091129,
    "s_pop": 3275189.5,
    "s_country": "China",
    "s_Volume": 291099,
    "e_city_id": 2,
    "e_City": "Tandil",
    "e_lat": -37.32001015,
    "e_lon": -59.15004358,
    "e_pop": 84799.5,
    "e_country": "Argentina",
    "e_vol": 1
  },
  {
    "s_city_id": 238,
    "s_city": "Hechi",
    "s_lat": 23.09653465,
    "s_lon": 109.6091129,
    "s_pop": 3275189.5,
    "s_country": "China",
    "s_Volume": 291099,
    "e_city_id": 3,
    "e_City": "Victorville",
    "e_lat": 34.5365082,
    "e_lon": -117.2903191,
    "e_pop": 83496,
    "e_country": "United States of America",
    "e_vol": 1
  },
  {
    "s_city_id": 238,
    "s_city": "Hechi",
    "s_lat": 23.09653465,
    "s_lon": 109.6091129,
    "s_pop": 3275189.5,
    "s_country": "China",
    "s_Volume": 291099,
    "e_city_id": 4,
    "e_City": "Cranbourne",
    "e_lat": -38.09960081,
    "e_lon": 145.2833695,
    "e_pop": 249955,
    "e_country": "Australia",
    "e_vol": 1
  },
  {
    "s_city_id": 238,
    "s_city": "Hechi",
    "s_lat": 23.09653465,
    "s_lon": 109.6091129,
    "s_pop": 3275189.5,
    "s_country": "China",
    "s_Volume": 291099,
    "e_city_id": 5,
    "e_City": "Curico",
    "e_lat": -34.97999795,
    "e_lon": -71.24002914,
    "e_pop": 108074.5,
    "e_country": "Chile",
    "e_vol": 1
  },
  {
    "s_city_id": 238,
    "s_city": "Hechi",
    "s_lat": 23.09653465,
    "s_lon": 109.6091129,
    "s_pop": 3275189.5,
    "s_country": "China",
    "s_Volume": 291099,
    "e_city_id": 6,
    "e_City": "Dahuk",
    "e_lat": 36.86670013,
    "e_lon": 43.00000263,
    "e_pop": 620500,
    "e_country": "Iraq",
    "e_vol": 1
  },
  {
    "s_city_id": 238,
    "s_city": "Hechi",
    "s_lat": 23.09653465,
    "s_lon": 109.6091129,
    "s_pop": 3275189.5,
    "s_country": "China",
    "s_Volume": 291099,
    "e_city_id": 7,
    "e_City": "Olympia",
    "e_lat": 47.03804486,
    "e_lon": -122.899434,
    "e_pop": 100950,
    "e_country": "United States of America",
    "e_vol": 1
  },
  {
    "s_city_id": 238,
    "s_city": "Hechi",
    "s_lat": 23.09653465,
    "s_lon": 109.6091129,
    "s_pop": 3275189.5,
    "s_country": "China",
    "s_Volume": 291099,
    "e_city_id": 8,
    "e_City": "Oostanay",
    "e_lat": 53.22089744,
    "e_lon": 63.62830196,
    "e_pop": 223450.5,
    "e_country": "Kazakhstan",
    "e_vol": 1
  },
  {
    "s_city_id": 238,
    "s_city": "Hechi",
    "s_lat": 23.09653465,
    "s_lon": 109.6091129,
    "s_pop": 3275189.5,
    "s_country": "China",
    "s_Volume": 291099,
    "e_city_id": 9,
    "e_City": "Oran",
    "e_lat": 35.71000246,
    "e_lon": -0.61997278,
    "e_pop": 721992,
    "e_country": "Algeria",
    "e_vol": 1
  },
  {
    "s_city_id": 623,
    "s_city": "San Jose",
    "s_lat": 9.93501243,
    "s_lon": -84.08405135,
    "s_pop": 642862,
    "s_country": "Costa Rica",
    "s_Volume": 302064,
    "e_city_id": 10,
    "e_City": "Asheville",
    "e_lat": 35.60119773,
    "e_lon": -82.55414474,
    "e_pop": 105775,
    "e_country": "United States of America",
    "e_vol": 1
  },
  {
    "s_city_id": 623,
    "s_city": "San Jose",
    "s_lat": 9.93501243,
    "s_lon": -84.08405135,
    "s_pop": 642862,
    "s_country": "Costa Rica",
    "s_Volume": 302064,
    "e_city_id": 11,
    "e_City": "Asti",
    "e_lat": 44.92998232,
    "e_lon": 8.209979206,
    "e_pop": 63410.5,
    "e_country": "Italy",
    "e_vol": 1
  },
  {
    "s_city_id": 623,
    "s_city": "San Jose",
    "s_lat": 9.93501243,
    "s_lon": -84.08405135,
    "s_pop": 642862,
    "s_country": "Costa Rica",
    "s_Volume": 302064,
    "e_city_id": 12,
    "e_City": "Athens",
    "e_lat": 33.96129783,
    "e_lon": -83.3780221,
    "e_pop": 78017.5,
    "e_country": "United States of America",
    "e_vol": 1
  },
  {
    "s_city_id": 623,
    "s_city": "San Jose",
    "s_lat": 9.93501243,
    "s_lon": -84.08405135,
    "s_pop": 642862,
    "s_country": "Costa Rica",
    "s_Volume": 302064,
    "e_city_id": 13,
    "e_City": "Atlanta",
    "e_lat": 33.83001385,
    "e_lon": -84.39994938,
    "e_pop": 2464454,
    "e_country": "United States of America",
    "e_vol": 1
  },
  {
    "s_city_id": 623,
    "s_city": "San Jose",
    "s_lat": 9.93501243,
    "s_lon": -84.08405135,
    "s_pop": 642862,
    "s_country": "Costa Rica",
    "s_Volume": 302064,
    "e_city_id": 14,
    "e_City": "Atyrau",
    "e_lat": 47.11269147,
    "e_lon": 51.92002437,
    "e_pop": 170583,
    "e_country": "Kazakhstan",
    "e_vol": 1
  },
  {
    "s_city_id": 623,
    "s_city": "San Jose",
    "s_lat": 9.93501243,
    "s_lon": -84.08405135,
    "s_pop": 642862,
    "s_country": "Costa Rica",
    "s_Volume": 302064,
    "e_city_id": 15,
    "e_City": "Aurora",
    "e_lat": 41.76539512,
    "e_lon": -88.29999557,
    "e_pop": 273949.5,
    "e_country": "United States of America",
    "e_vol": 1
  },
  {
    "s_city_id": 623,
    "s_city": "San Jose",
    "s_lat": 9.93501243,
    "s_lon": -84.08405135,
    "s_pop": 642862,
    "s_country": "Costa Rica",
    "s_Volume": 302064,
    "e_city_id": 16,
    "e_City": "Babruysk",
    "e_lat": 53.12656211,
    "e_lon": 29.19278113,
    "e_pop": 212821.5,
    "e_country": "Belarus",
    "e_vol": 1
  },
  {
    "s_city_id": 222,
    "s_city": "Haifa",
    "s_lat": 32.8204114,
    "s_lon": 34.98002478,
    "s_pop": 639150,
    "s_country": "Israel",
    "s_Volume": 400017,
    "e_city_id": 17,
    "e_City": "Ballarat",
    "e_lat": -37.55958209,
    "e_lon": 143.8400468,
    "e_pop": 73404,
    "e_country": "Australia",
    "e_vol": 1
  },
  {
    "s_city_id": 222,
    "s_city": "Haifa",
    "s_lat": 32.8204114,
    "s_lon": 34.98002478,
    "s_pop": 639150,
    "s_country": "Israel",
    "s_Volume": 400017,
    "e_city_id": 18,
    "e_City": "Barnaul",
    "e_lat": 53.35499778,
    "e_lon": 83.74500688,
    "e_pop": 569711,
    "e_country": "Russia",
    "e_vol": 1
  },
  {
    "s_city_id": 222,
    "s_city": "Haifa",
    "s_lat": 32.8204114,
    "s_lon": 34.98002478,
    "s_pop": 639150,
    "s_country": "Israel",
    "s_Volume": 400017,
    "e_city_id": 19,
    "e_City": "Lanzhou",
    "e_lat": 36.05602785,
    "e_lon": 103.7920003,
    "e_pop": 2282609,
    "e_country": "China",
    "e_vol": 1
  },
  {
    "s_city_id": 222,
    "s_city": "Haifa",
    "s_lat": 32.8204114,
    "s_lon": 34.98002478,
    "s_pop": 639150,
    "s_country": "Israel",
    "s_Volume": 400017,
    "e_city_id": 20,
    "e_City": "L'Aquila",
    "e_lat": 42.35039817,
    "e_lon": 13.39002478,
    "e_pop": 62201.5,
    "e_country": "Italy",
    "e_vol": 1
  },
  {
    "s_city_id": 222,
    "s_city": "Haifa",
    "s_lat": 32.8204114,
    "s_lon": 34.98002478,
    "s_pop": 639150,
    "s_country": "Israel",
    "s_Volume": 400017,
    "e_city_id": 21,
    "e_City": "Larache",
    "e_lat": 35.20042116,
    "e_lon": -6.160022218,
    "e_pop": 114688,
    "e_country": "Morocco",
    "e_vol": 1
  },
  {
    "s_city_id": 222,
    "s_city": "Haifa",
    "s_lat": 32.8204114,
    "s_lon": 34.98002478,
    "s_pop": 639150,
    "s_country": "Israel",
    "s_Volume": 400017,
    "e_city_id": 22,
    "e_City": "Le Mans",
    "e_lat": 48.00041506,
    "e_lon": 0.099983275,
    "e_pop": 143392.5,
    "e_country": "France",
    "e_vol": 1
  },
  {
    "s_city_id": 657,
    "s_city": "Ulaanbaatar",
    "s_lat": 47.9166734,
    "s_lon": 106.9166158,
    "s_pop": 827306,
    "s_country": "Mongolia",
    "s_Volume": 645321,
    "e_city_id": 23,
    "e_City": "Elkhart",
    "e_lat": 41.68294537,
    "e_lon": -85.96879419,
    "e_pop": 100295,
    "e_country": "United States of America",
    "e_vol": 1
  },
  {
    "s_city_id": 657,
    "s_city": "Ulaanbaatar",
    "s_lat": 47.9166734,
    "s_lon": 106.9166158,
    "s_pop": 827306,
    "s_country": "Mongolia",
    "s_Volume": 645321,
    "e_city_id": 24,
    "e_City": "Encarnacion",
    "e_lat": -27.34718482,
    "e_lon": -55.87391878,
    "e_pop": 251813.5,
    "e_country": "Paraguay",
    "e_vol": 1
  },
  {
    "s_city_id": 657,
    "s_city": "Ulaanbaatar",
    "s_lat": 47.9166734,
    "s_lon": 106.9166158,
    "s_pop": 827306,
    "s_country": "Mongolia",
    "s_Volume": 645321,
    "e_city_id": 25,
    "e_City": "Erechim",
    "e_lat": -27.63000731,
    "e_lon": -52.26999841,
    "e_pop": 85365.5,
    "e_country": "Brazil",
    "e_vol": 1
  },
  {
    "s_city_id": 657,
    "s_city": "Ulaanbaatar",
    "s_lat": 47.9166734,
    "s_lon": 106.9166158,
    "s_pop": 827306,
    "s_country": "Mongolia",
    "s_Volume": 645321,
    "e_city_id": 26,
    "e_City": "Everett",
    "e_lat": 47.9604175,
    "e_lon": -122.1999677,
    "e_pop": 291948,
    "e_country": "United States of America",
    "e_vol": 1
  },
  {
    "s_city_id": 657,
    "s_city": "Ulaanbaatar",
    "s_lat": 47.9166734,
    "s_lon": 106.9166158,
    "s_pop": 827306,
    "s_country": "Mongolia",
    "s_Volume": 645321,
    "e_city_id": 27,
    "e_City": "Exeter",
    "e_lat": 50.70040529,
    "e_lon": -3.529950197,
    "e_pop": 108242,
    "e_country": "United Kingdom",
    "e_vol": 1
  },
  {
    "s_city_id": 657,
    "s_city": "Ulaanbaatar",
    "s_lat": 47.9166734,
    "s_lon": 106.9166158,
    "s_pop": 827306,
    "s_country": "Mongolia",
    "s_Volume": 645321,
    "e_city_id": 28,
    "e_City": "Faisalabad",
    "e_lat": 31.40998069,
    "e_lon": 73.10999711,
    "e_pop": 2561797.5,
    "e_country": "Pakistan",
    "e_vol": 1
  },
  {
    "s_city_id": 657,
    "s_city": "Ulaanbaatar",
    "s_lat": 47.9166734,
    "s_lon": 106.9166158,
    "s_pop": 827306,
    "s_country": "Mongolia",
    "s_Volume": 645321,
    "e_city_id": 29,
    "e_City": "Fargo",
    "e_lat": 46.8772278,
    "e_lon": -96.7894257,
    "e_pop": 127472.5,
    "e_country": "United States of America",
    "e_vol": 1
  },
  {
    "s_city_id": 657,
    "s_city": "Ulaanbaatar",
    "s_lat": 47.9166734,
    "s_lon": 106.9166158,
    "s_pop": 827306,
    "s_country": "Mongolia",
    "s_Volume": 645321,
    "e_city_id": 30,
    "e_City": "Fayetteville",
    "e_lat": 36.06297833,
    "e_lon": -94.15720911,
    "e_pop": 108267.5,
    "e_country": "United States of America",
    "e_vol": 1
  },
  {
    "s_city_id": 657,
    "s_city": "Ulaanbaatar",
    "s_lat": 47.9166734,
    "s_lon": 106.9166158,
    "s_pop": 827306,
    "s_country": "Mongolia",
    "s_Volume": 645321,
    "e_city_id": 31,
    "e_City": "Florianopolis",
    "e_lat": -27.57998452,
    "e_lon": -48.52002059,
    "e_pop": 568783,
    "e_country": "Brazil",
    "e_vol": 1
  },
  {
    "s_city_id": 657,
    "s_city": "Ulaanbaatar",
    "s_lat": 47.9166734,
    "s_lon": 106.9166158,
    "s_pop": 827306,
    "s_country": "Mongolia",
    "s_Volume": 645321,
    "e_city_id": 32,
    "e_City": "Fort Pierce",
    "e_lat": 27.44678591,
    "e_lon": -80.3258053,
    "e_pop": 132984,
    "e_country": "United States of America",
    "e_vol": 1
  },
  {
    "s_city_id": 657,
    "s_city": "Ulaanbaatar",
    "s_lat": 47.9166734,
    "s_lon": 106.9166158,
    "s_pop": 827306,
    "s_country": "Mongolia",
    "s_Volume": 645321,
    "e_city_id": 33,
    "e_City": "Fort Wayne",
    "e_lat": 41.08039817,
    "e_lon": -85.12998234,
    "e_pop": 264793,
    "e_country": "United States of America",
    "e_vol": 1
  },
  {
    "s_city_id": 657,
    "s_city": "Ulaanbaatar",
    "s_lat": 47.9166734,
    "s_lon": 106.9166158,
    "s_pop": 827306,
    "s_country": "Mongolia",
    "s_Volume": 645321,
    "e_city_id": 34,
    "e_City": "Fresno",
    "e_lat": 36.7477169,
    "e_lon": -119.7729841,
    "e_pop": 540768,
    "e_country": "United States of America",
    "e_vol": 1
  },
  {
    "s_city_id": 657,
    "s_city": "Ulaanbaatar",
    "s_lat": 47.9166734,
    "s_lon": 106.9166158,
    "s_pop": 827306,
    "s_country": "Mongolia",
    "s_Volume": 645321,
    "e_city_id": 35,
    "e_City": "Ft. Myers",
    "e_lat": 26.64029767,
    "e_lon": -81.86049199,
    "e_pop": 120810.5,
    "e_country": "United States of America",
    "e_vol": 1
  },
  {
    "s_city_id": 657,
    "s_city": "Ulaanbaatar",
    "s_lat": 47.9166734,
    "s_lon": 106.9166158,
    "s_pop": 827306,
    "s_country": "Mongolia",
    "s_Volume": 645321,
    "e_city_id": 36,
    "e_City": "Fukui",
    "e_lat": 36.07041974,
    "e_lon": 136.2200468,
    "e_pop": 241288.5,
    "e_country": "Japan",
    "e_vol": 1
  },
  {
    "s_city_id": 657,
    "s_city": "Ulaanbaatar",
    "s_lat": 47.9166734,
    "s_lon": 106.9166158,
    "s_pop": 827306,
    "s_country": "Mongolia",
    "s_Volume": 645321,
    "e_city_id": 37,
    "e_City": "Furth",
    "e_lat": 49.47001528,
    "e_lon": 10.99998979,
    "e_pop": 174934.5,
    "e_country": "Germany",
    "e_vol": 1
  },
  {
    "s_city_id": 657,
    "s_city": "Ulaanbaatar",
    "s_lat": 47.9166734,
    "s_lon": 106.9166158,
    "s_pop": 827306,
    "s_country": "Mongolia",
    "s_Volume": 645321,
    "e_city_id": 38,
    "e_City": "Gävle",
    "e_lat": 60.66698041,
    "e_lon": 17.1666418,
    "e_pop": 68235.5,
    "e_country": "Sweden",
    "e_vol": 1
  },
  {
    "s_city_id": 657,
    "s_city": "Ulaanbaatar",
    "s_lat": 47.9166734,
    "s_lon": 106.9166158,
    "s_pop": 827306,
    "s_country": "Mongolia",
    "s_Volume": 645321,
    "e_city_id": 39,
    "e_City": "Galway",
    "e_lat": 53.272393,
    "e_lon": -9.048812298,
    "e_pop": 73140,
    "e_country": "Ireland",
    "e_vol": 1
  },
  {
    "s_city_id": 657,
    "s_city": "Ulaanbaatar",
    "s_lat": 47.9166734,
    "s_lon": 106.9166158,
    "s_pop": 827306,
    "s_country": "Mongolia",
    "s_Volume": 645321,
    "e_city_id": 40,
    "e_City": "Ganca",
    "e_lat": 40.68499595,
    "e_lon": 46.35002844,
    "e_pop": 301699.5,
    "e_country": "Azerbaijan",
    "e_vol": 1
  },
  {
    "s_city_id": 657,
    "s_city": "Ulaanbaatar",
    "s_lat": 47.9166734,
    "s_lon": 106.9166158,
    "s_pop": 827306,
    "s_country": "Mongolia",
    "s_Volume": 645321,
    "e_city_id": 41,
    "e_City": "Ganzhou",
    "e_lat": 25.91997988,
    "e_lon": 114.9500272,
    "e_pop": 1216134.5,
    "e_country": "China",
    "e_vol": 1
  },
  {
    "s_city_id": 657,
    "s_city": "Ulaanbaatar",
    "s_lat": 47.9166734,
    "s_lon": 106.9166158,
    "s_pop": 827306,
    "s_country": "Mongolia",
    "s_Volume": 645321,
    "e_city_id": 42,
    "e_City": "Garissa",
    "e_lat": -0.439625632,
    "e_lon": 39.67002274,
    "e_pop": 65948,
    "e_country": "Kenya",
    "e_vol": 1
  },
  {
    "s_city_id": 262,
    "s_city": "Johannesburg",
    "s_lat": -26.17004474,
    "s_lon": 28.03000972,
    "s_pop": 2730734.5,
    "s_country": "South Africa",
    "s_Volume": 666365,
    "e_city_id": 43,
    "e_City": "Chengdu",
    "e_lat": 30.67000002,
    "e_lon": 104.0700195,
    "e_pop": 4036718.5,
    "e_country": "China",
    "e_vol": 1
  },
  {
    "s_city_id": 262,
    "s_city": "Johannesburg",
    "s_lat": -26.17004474,
    "s_lon": 28.03000972,
    "s_pop": 2730734.5,
    "s_country": "South Africa",
    "s_Volume": 666365,
    "e_city_id": 44,
    "e_City": "Chester",
    "e_lat": 53.20002016,
    "e_lon": -2.919987428,
    "e_pop": 83285.5,
    "e_country": "United Kingdom",
    "e_vol": 1
  },
  {
    "s_city_id": 262,
    "s_city": "Johannesburg",
    "s_lat": -26.17004474,
    "s_lon": 28.03000972,
    "s_pop": 2730734.5,
    "s_country": "South Africa",
    "s_Volume": 666365,
    "e_city_id": 45,
    "e_City": "Chihuahua",
    "e_lat": 28.64498151,
    "e_lon": -106.0849823,
    "e_pop": 750633.5,
    "e_country": "Mexico",
    "e_vol": 1
  },
  {
    "s_city_id": 262,
    "s_city": "Johannesburg",
    "s_lat": -26.17004474,
    "s_lon": 28.03000972,
    "s_pop": 2730734.5,
    "s_country": "South Africa",
    "s_Volume": 666365,
    "e_city_id": 46,
    "e_City": "Chita",
    "e_lat": 52.05502545,
    "e_lon": 113.4650016,
    "e_pop": 293153.5,
    "e_country": "Russia",
    "e_vol": 1
  },
  {
    "s_city_id": 262,
    "s_city": "Johannesburg",
    "s_lat": -26.17004474,
    "s_lon": 28.03000972,
    "s_pop": 2730734.5,
    "s_country": "South Africa",
    "s_Volume": 666365,
    "e_city_id": 47,
    "e_City": "Chlef",
    "e_lat": 36.17041363,
    "e_lon": 1.319960489,
    "e_pop": 449167,
    "e_country": "Algeria",
    "e_vol": 1
  },
  {
    "s_city_id": 262,
    "s_city": "Johannesburg",
    "s_lat": -26.17004474,
    "s_lon": 28.03000972,
    "s_pop": 2730734.5,
    "s_country": "South Africa",
    "s_Volume": 666365,
    "e_city_id": 48,
    "e_City": "Daytona Beach",
    "e_lat": 29.21055422,
    "e_lon": -81.0230754,
    "e_pop": 140775.5,
    "e_country": "United States of America",
    "e_vol": 1
  },
  {
    "s_city_id": 262,
    "s_city": "Johannesburg",
    "s_lat": -26.17004474,
    "s_lon": 28.03000972,
    "s_pop": 2730734.5,
    "s_country": "South Africa",
    "s_Volume": 666365,
    "e_city_id": 49,
    "e_City": "Denton",
    "e_lat": 33.21576194,
    "e_lon": -97.12883651,
    "e_pop": 138952.5,
    "e_country": "United States of America",
    "e_vol": 1
  },
  {
    "s_city_id": 262,
    "s_city": "Johannesburg",
    "s_lat": -26.17004474,
    "s_lon": 28.03000972,
    "s_pop": 2730734.5,
    "s_country": "South Africa",
    "s_Volume": 666365,
    "e_city_id": 50,
    "e_City": "Detroit",
    "e_lat": 42.32996014,
    "e_lon": -83.08005579,
    "e_pop": 2526135,
    "e_country": "United States of America",
    "e_vol": 1
  },
  {
    "s_city_id": 262,
    "s_city": "Johannesburg",
    "s_lat": -26.17004474,
    "s_lon": 28.03000972,
    "s_pop": 2730734.5,
    "s_country": "South Africa",
    "s_Volume": 666365,
    "e_city_id": 51,
    "e_City": "Divinopolis",
    "e_lat": -20.14953367,
    "e_lon": -44.89998316,
    "e_pop": 181457,
    "e_country": "Brazil",
    "e_vol": 1
  },
  {
    "s_city_id": 262,
    "s_city": "Johannesburg",
    "s_lat": -26.17004474,
    "s_lon": 28.03000972,
    "s_pop": 2730734.5,
    "s_country": "South Africa",
    "s_Volume": 666365,
    "e_city_id": 52,
    "e_City": "Dondo",
    "e_lat": -19.61959186,
    "e_lon": 34.7300142,
    "e_pop": 75217.5,
    "e_country": "Mozambique",
    "e_vol": 1
  },
  {
    "s_city_id": 262,
    "s_city": "Johannesburg",
    "s_lat": -26.17004474,
    "s_lon": 28.03000972,
    "s_pop": 2730734.5,
    "s_country": "South Africa",
    "s_Volume": 666365,
    "e_city_id": 53,
    "e_City": "Dongguan",
    "e_lat": 23.0488889,
    "e_lon": 113.7447222,
    "e_pop": 4528000,
    "e_country": "China",
    "e_vol": 1
  },
  {
    "s_city_id": 262,
    "s_city": "Johannesburg",
    "s_lat": -26.17004474,
    "s_lon": 28.03000972,
    "s_pop": 2730734.5,
    "s_country": "South Africa",
    "s_Volume": 666365,
    "e_city_id": 54,
    "e_City": "Dresden",
    "e_lat": 51.04997052,
    "e_lon": 13.75000281,
    "e_pop": 552184.5,
    "e_country": "Germany",
    "e_vol": 1
  },
  {
    "s_city_id": 262,
    "s_city": "Johannesburg",
    "s_lat": -26.17004474,
    "s_lon": 28.03000972,
    "s_pop": 2730734.5,
    "s_country": "South Africa",
    "s_Volume": 666365,
    "e_city_id": 55,
    "e_City": "Drohobych",
    "e_lat": 49.34436403,
    "e_lon": 23.49938188,
    "e_pop": 101837.5,
    "e_country": "Ukraine",
    "e_vol": 1
  },
  {
    "s_city_id": 262,
    "s_city": "Johannesburg",
    "s_lat": -26.17004474,
    "s_lon": 28.03000972,
    "s_pop": 2730734.5,
    "s_country": "South Africa",
    "s_Volume": 666365,
    "e_city_id": 56,
    "e_City": "Dublin",
    "e_lat": 53.33306114,
    "e_lon": -6.248905682,
    "e_pop": 1013988,
    "e_country": "Ireland",
    "e_vol": 1
  },
  {
    "s_city_id": 183,
    "s_city": "Dakar",
    "s_lat": 14.71583173,
    "s_lon": -17.47313013,
    "s_pop": 2540200,
    "s_country": "Senegal",
    "s_Volume": 765122,
    "e_city_id": 57,
    "e_City": "Beirut",
    "e_lat": 33.87197512,
    "e_lon": 35.50970821,
    "e_pop": 1779062.5,
    "e_country": "Lebanon",
    "e_vol": 1
  },
  {
    "s_city_id": 183,
    "s_city": "Dakar",
    "s_lat": 14.71583173,
    "s_lon": -17.47313013,
    "s_pop": 2540200,
    "s_country": "Senegal",
    "s_Volume": 765122,
    "e_city_id": 58,
    "e_City": "Linhares",
    "e_lat": -19.38999347,
    "e_lon": -40.05002079,
    "e_pop": 86413,
    "e_country": "Brazil",
    "e_vol": 1
  },
  {
    "s_city_id": 183,
    "s_city": "Dakar",
    "s_lat": 14.71583173,
    "s_lon": -17.47313013,
    "s_pop": 2540200,
    "s_country": "Senegal",
    "s_Volume": 765122,
    "e_city_id": 59,
    "e_City": "Linköping",
    "e_lat": 58.41001223,
    "e_lon": 15.62993974,
    "e_pop": 94111.5,
    "e_country": "Sweden",
    "e_vol": 1
  },
  {
    "s_city_id": 183,
    "s_city": "Dakar",
    "s_lat": 14.71583173,
    "s_lon": -17.47313013,
    "s_pop": 2540200,
    "s_country": "Senegal",
    "s_Volume": 765122,
    "e_city_id": 60,
    "e_City": "Linyi",
    "e_lat": 35.07998924,
    "e_lon": 118.329976,
    "e_pop": 1176334.5,
    "e_country": "China",
    "e_vol": 1
  },
  {
    "s_city_id": 183,
    "s_city": "Dakar",
    "s_lat": 14.71583173,
    "s_lon": -17.47313013,
    "s_pop": 2540200,
    "s_country": "Senegal",
    "s_Volume": 765122,
    "e_city_id": 61,
    "e_City": "Liverpool",
    "e_lat": 53.41600181,
    "e_lon": -2.917997886,
    "e_pop": 639972.5,
    "e_country": "United Kingdom",
    "e_vol": 1
  },
  {
    "s_city_id": 183,
    "s_city": "Dakar",
    "s_lat": 14.71583173,
    "s_lon": -17.47313013,
    "s_pop": 2540200,
    "s_country": "Senegal",
    "s_Volume": 765122,
    "e_city_id": 62,
    "e_City": "Lobito",
    "e_lat": -12.37000853,
    "e_lon": 13.54123002,
    "e_pop": 170733,
    "e_country": "Angola",
    "e_vol": 1
  },
  {
    "s_city_id": 183,
    "s_city": "Dakar",
    "s_lat": 14.71583173,
    "s_lon": -17.47313013,
    "s_pop": 2540200,
    "s_country": "Senegal",
    "s_Volume": 765122,
    "e_city_id": 63,
    "e_City": "Logrono",
    "e_lat": 42.47036501,
    "e_lon": -2.429991497,
    "e_pop": 123918.5,
    "e_country": "Spain",
    "e_vol": 1
  },
  {
    "s_city_id": 183,
    "s_city": "Dakar",
    "s_lat": 14.71583173,
    "s_lon": -17.47313013,
    "s_pop": 2540200,
    "s_country": "Senegal",
    "s_Volume": 765122,
    "e_city_id": 64,
    "e_City": "Londonderry",
    "e_lat": 55.00037539,
    "e_lon": -7.333283937,
    "e_pop": 82635,
    "e_country": "United Kingdom",
    "e_vol": 1
  },
  {
    "s_city_id": 183,
    "s_city": "Dakar",
    "s_lat": 14.71583173,
    "s_lon": -17.47313013,
    "s_pop": 2540200,
    "s_country": "Senegal",
    "s_Volume": 765122,
    "e_city_id": 65,
    "e_City": "Lorient",
    "e_lat": 47.75040448,
    "e_lon": -3.366575156,
    "e_pop": 71532,
    "e_country": "France",
    "e_vol": 1
  },
  {
    "s_city_id": 183,
    "s_city": "Dakar",
    "s_lat": 14.71583173,
    "s_lon": -17.47313013,
    "s_pop": 2540200,
    "s_country": "Senegal",
    "s_Volume": 765122,
    "e_city_id": 66,
    "e_City": "Los Angeles",
    "e_lat": -37.46000161,
    "e_lon": -72.35998661,
    "e_pop": 135334.5,
    "e_country": "Chile",
    "e_vol": 1
  },
  {
    "s_city_id": 183,
    "s_city": "Dakar",
    "s_lat": 14.71583173,
    "s_lon": -17.47313013,
    "s_pop": 2540200,
    "s_country": "Senegal",
    "s_Volume": 765122,
    "e_city_id": 67,
    "e_City": "Louangphrabang",
    "e_lat": 19.88453432,
    "e_lon": 102.1416101,
    "e_pop": 77260,
    "e_country": "Laos",
    "e_vol": 1
  },
  {
    "s_city_id": 183,
    "s_city": "Dakar",
    "s_lat": 14.71583173,
    "s_lon": -17.47313013,
    "s_pop": 2540200,
    "s_country": "Senegal",
    "s_Volume": 765122,
    "e_city_id": 68,
    "e_City": "Lujan",
    "e_lat": -34.57960895,
    "e_lon": -59.10999435,
    "e_pop": 69744.5,
    "e_country": "Argentina",
    "e_vol": 1
  },
  {
    "s_city_id": 183,
    "s_city": "Dakar",
    "s_lat": 14.71583173,
    "s_lon": -17.47313013,
    "s_pop": 2540200,
    "s_country": "Senegal",
    "s_Volume": 765122,
    "e_city_id": 69,
    "e_City": "Santiago del Estero",
    "e_lat": -27.78333128,
    "e_lon": -64.26665633,
    "e_pop": 317549.5,
    "e_country": "Argentina",
    "e_vol": 1
  },
  {
    "s_city_id": 183,
    "s_city": "Dakar",
    "s_lat": 14.71583173,
    "s_lon": -17.47313013,
    "s_pop": 2540200,
    "s_country": "Senegal",
    "s_Volume": 765122,
    "e_city_id": 70,
    "e_City": "Junin",
    "e_lat": -34.58456989,
    "e_lon": -60.95887374,
    "e_pop": 66141.5,
    "e_country": "Argentina",
    "e_vol": 1
  },
  {
    "s_city_id": 183,
    "s_city": "Dakar",
    "s_lat": 14.71583173,
    "s_lon": -17.47313013,
    "s_pop": 2540200,
    "s_country": "Senegal",
    "s_Volume": 765122,
    "e_city_id": 71,
    "e_City": "Kagoshima",
    "e_lat": 31.58596478,
    "e_lon": 130.561064,
    "e_pop": 536092.5,
    "e_country": "Japan",
    "e_vol": 1
  },
  {
    "s_city_id": 183,
    "s_city": "Dakar",
    "s_lat": 14.71583173,
    "s_lon": -17.47313013,
    "s_pop": 2540200,
    "s_country": "Senegal",
    "s_Volume": 765122,
    "e_city_id": 72,
    "e_City": "Kakamega",
    "e_lat": 0.290407327,
    "e_lon": 34.7300142,
    "e_pop": 63426,
    "e_country": "Kenya",
    "e_vol": 1
  },
  {
    "s_city_id": 183,
    "s_city": "Dakar",
    "s_lat": 14.71583173,
    "s_lon": -17.47313013,
    "s_pop": 2540200,
    "s_country": "Senegal",
    "s_Volume": 765122,
    "e_city_id": 73,
    "e_City": "Kalamata",
    "e_lat": 37.03891359,
    "e_lon": 22.11419511,
    "e_pop": 61465.5,
    "e_country": "Greece",
    "e_vol": 1
  },
  {
    "s_city_id": 183,
    "s_city": "Dakar",
    "s_lat": 14.71583173,
    "s_lon": -17.47313013,
    "s_pop": 2540200,
    "s_country": "Senegal",
    "s_Volume": 765122,
    "e_city_id": 74,
    "e_City": "Kalamazoo",
    "e_lat": 42.29215883,
    "e_lon": -85.58718958,
    "e_pop": 128759.5,
    "e_country": "United States of America",
    "e_vol": 1
  },
  {
    "s_city_id": 183,
    "s_city": "Dakar",
    "s_lat": 14.71583173,
    "s_lon": -17.47313013,
    "s_pop": 2540200,
    "s_country": "Senegal",
    "s_Volume": 765122,
    "e_city_id": 75,
    "e_City": "Kamensk Uralskiy",
    "e_lat": 56.42046958,
    "e_lon": 61.9350203,
    "e_pop": 176598.5,
    "e_country": "Russia",
    "e_vol": 1
  },
  {
    "s_city_id": 183,
    "s_city": "Dakar",
    "s_lat": 14.71583173,
    "s_lon": -17.47313013,
    "s_pop": 2540200,
    "s_country": "Senegal",
    "s_Volume": 765122,
    "e_city_id": 76,
    "e_City": "Kampong Cham",
    "e_lat": 12.00044191,
    "e_lon": 105.4500386,
    "e_pop": 72491.5,
    "e_country": "Cambodia",
    "e_vol": 1
  },
  {
    "s_city_id": 183,
    "s_city": "Dakar",
    "s_lat": 14.71583173,
    "s_lon": -17.47313013,
    "s_pop": 2540200,
    "s_country": "Senegal",
    "s_Volume": 765122,
    "e_city_id": 77,
    "e_City": "Kamyanets-Podilskyy",
    "e_lat": 48.68430096,
    "e_lon": 26.58089921,
    "e_pop": 107329,
    "e_country": "Ukraine",
    "e_vol": 1
  },
  {
    "s_city_id": 183,
    "s_city": "Dakar",
    "s_lat": 14.71583173,
    "s_lon": -17.47313013,
    "s_pop": 2540200,
    "s_country": "Senegal",
    "s_Volume": 765122,
    "e_city_id": 78,
    "e_City": "Kamyshin",
    "e_lat": 50.08039146,
    "e_lon": 45.40000891,
    "e_pop": 82613,
    "e_country": "Russia",
    "e_vol": 1
  },
  {
    "s_city_id": 183,
    "s_city": "Dakar",
    "s_lat": 14.71583173,
    "s_lon": -17.47313013,
    "s_pop": 2540200,
    "s_country": "Senegal",
    "s_Volume": 765122,
    "e_city_id": 79,
    "e_City": "Kanazawa",
    "e_lat": 36.56000226,
    "e_lon": 136.6400211,
    "e_pop": 505093,
    "e_country": "Japan",
    "e_vol": 1
  },
  {
    "s_city_id": 183,
    "s_city": "Dakar",
    "s_lat": 14.71583173,
    "s_lon": -17.47313013,
    "s_pop": 2540200,
    "s_country": "Senegal",
    "s_Volume": 765122,
    "e_city_id": 80,
    "e_City": "Kanoya",
    "e_lat": 31.38331565,
    "e_lon": 130.8500386,
    "e_pop": 68513.5,
    "e_country": "Japan",
    "e_vol": 1
  },
  {
    "s_city_id": 183,
    "s_city": "Dakar",
    "s_lat": 14.71583173,
    "s_lon": -17.47313013,
    "s_pop": 2540200,
    "s_country": "Senegal",
    "s_Volume": 765122,
    "e_city_id": 81,
    "e_City": "Rostock",
    "e_lat": 54.07038047,
    "e_lon": 12.14999711,
    "e_pop": 200686.5,
    "e_country": "Germany",
    "e_vol": 1
  },
  {
    "s_city_id": 183,
    "s_city": "Dakar",
    "s_lat": 14.71583173,
    "s_lon": -17.47313013,
    "s_pop": 2540200,
    "s_country": "Senegal",
    "s_Volume": 765122,
    "e_city_id": 82,
    "e_City": "Skopje",
    "e_lat": 42.00000612,
    "e_lon": 21.43346147,
    "e_pop": 484488,
    "e_country": "Macedonia",
    "e_vol": 1
  },
  {
    "s_city_id": 183,
    "s_city": "Dakar",
    "s_lat": 14.71583173,
    "s_lon": -17.47313013,
    "s_pop": 2540200,
    "s_country": "Senegal",
    "s_Volume": 765122,
    "e_city_id": 83,
    "e_City": "Townsville",
    "e_lat": -19.24995034,
    "e_lon": 146.7699971,
    "e_pop": 129212,
    "e_country": "Australia",
    "e_vol": 1
  },
  {
    "s_city_id": 183,
    "s_city": "Dakar",
    "s_lat": 14.71583173,
    "s_lon": -17.47313013,
    "s_pop": 2540200,
    "s_country": "Senegal",
    "s_Volume": 765122,
    "e_city_id": 84,
    "e_City": "Szekesfehervar",
    "e_lat": 47.19467613,
    "e_lon": 18.40806474,
    "e_pop": 122959.5,
    "e_country": "Hungary",
    "e_vol": 1
  },
  {
    "s_city_id": 183,
    "s_city": "Dakar",
    "s_lat": 14.71583173,
    "s_lon": -17.47313013,
    "s_pop": 2540200,
    "s_country": "Senegal",
    "s_Volume": 765122,
    "e_city_id": 85,
    "e_City": "Van",
    "e_lat": 38.49543968,
    "e_lon": 43.39997595,
    "e_pop": 326262,
    "e_country": "Turkey",
    "e_vol": 1
  },
  {
    "s_city_id": 183,
    "s_city": "Dakar",
    "s_lat": 14.71583173,
    "s_lon": -17.47313013,
    "s_pop": 2540200,
    "s_country": "Senegal",
    "s_Volume": 765122,
    "e_city_id": 86,
    "e_City": "Mainz",
    "e_lat": 49.98247246,
    "e_lon": 8.273219156,
    "e_pop": 184997,
    "e_country": "Germany",
    "e_vol": 1
  },
  {
    "s_city_id": 183,
    "s_city": "Dakar",
    "s_lat": 14.71583173,
    "s_lon": -17.47313013,
    "s_pop": 2540200,
    "s_country": "Senegal",
    "s_Volume": 765122,
    "e_city_id": 87,
    "e_City": "Maizuru",
    "e_lat": 35.4504059,
    "e_lon": 135.3333309,
    "e_pop": 62531.5,
    "e_country": "Japan",
    "e_vol": 1
  },
  {
    "s_city_id": 183,
    "s_city": "Dakar",
    "s_lat": 14.71583173,
    "s_lon": -17.47313013,
    "s_pop": 2540200,
    "s_country": "Senegal",
    "s_Volume": 765122,
    "e_city_id": 88,
    "e_City": "Makkah",
    "e_lat": 21.43002138,
    "e_lon": 39.82003943,
    "e_pop": 1354312,
    "e_country": "Saudi Arabia",
    "e_vol": 1
  },
  {
    "s_city_id": 183,
    "s_city": "Dakar",
    "s_lat": 14.71583173,
    "s_lon": -17.47313013,
    "s_pop": 2540200,
    "s_country": "Senegal",
    "s_Volume": 765122,
    "e_city_id": 89,
    "e_City": "Malacca",
    "e_lat": 2.206414407,
    "e_lon": 102.2464615,
    "e_pop": 645916.5,
    "e_country": "Malaysia",
    "e_vol": 1
  },
  {
    "s_city_id": 183,
    "s_city": "Dakar",
    "s_lat": 14.71583173,
    "s_lon": -17.47313013,
    "s_pop": 2540200,
    "s_country": "Senegal",
    "s_Volume": 765122,
    "e_city_id": 90,
    "e_City": "Maladzyechna",
    "e_lat": 54.31878908,
    "e_lon": 26.86532629,
    "e_pop": 96055,
    "e_country": "Belarus",
    "e_vol": 1
  },
  {
    "s_city_id": 183,
    "s_city": "Dakar",
    "s_lat": 14.71583173,
    "s_lon": -17.47313013,
    "s_pop": 2540200,
    "s_country": "Senegal",
    "s_Volume": 765122,
    "e_city_id": 91,
    "e_City": "Malanje",
    "e_lat": -9.540000388,
    "e_lon": 16.34002559,
    "e_pop": 106451,
    "e_country": "Angola",
    "e_vol": 1
  },
  {
    "s_city_id": 183,
    "s_city": "Dakar",
    "s_lat": 14.71583173,
    "s_lon": -17.47313013,
    "s_pop": 2540200,
    "s_country": "Senegal",
    "s_Volume": 765122,
    "e_city_id": 92,
    "e_City": "Male",
    "e_lat": 4.16670819,
    "e_lon": 73.49994747,
    "e_pop": 108310,
    "e_country": "Maldives",
    "e_vol": 1
  },
  {
    "s_city_id": 183,
    "s_city": "Dakar",
    "s_lat": 14.71583173,
    "s_lon": -17.47313013,
    "s_pop": 2540200,
    "s_country": "Senegal",
    "s_Volume": 765122,
    "e_city_id": 93,
    "e_City": "Santo Domingo",
    "e_lat": 18.47007285,
    "e_lon": -69.90008508,
    "e_pop": 1078436.5,
    "e_country": "Dominican Republic",
    "e_vol": 1
  },
  {
    "s_city_id": 183,
    "s_city": "Dakar",
    "s_lat": 14.71583173,
    "s_lon": -17.47313013,
    "s_pop": 2540200,
    "s_country": "Senegal",
    "s_Volume": 765122,
    "e_city_id": 94,
    "e_City": "Takamatsu",
    "e_lat": 34.34473696,
    "e_lon": 134.044779,
    "e_pop": 329861.5,
    "e_country": "Japan",
    "e_vol": 1
  },
  {
    "s_city_id": 183,
    "s_city": "Dakar",
    "s_lat": 14.71583173,
    "s_lon": -17.47313013,
    "s_pop": 2540200,
    "s_country": "Senegal",
    "s_Volume": 765122,
    "e_city_id": 95,
    "e_City": "Velikiy Novgorod",
    "e_lat": 58.4999809,
    "e_lon": 31.33001501,
    "e_pop": 218717,
    "e_country": "Russia",
    "e_vol": 1
  },
  {
    "s_city_id": 579,
    "s_city": "Rome",
    "s_lat": 41.89595563,
    "s_lon": 12.48325842,
    "s_pop": 1687226,
    "s_country": "Italy",
    "s_Volume": 800446,
    "e_city_id": 96,
    "e_City": "Mar del Plata",
    "e_lat": -38.00002033,
    "e_lon": -57.57998438,
    "e_pop": 554916,
    "e_country": "Argentina",
    "e_vol": 1
  },
  {
    "s_city_id": 579,
    "s_city": "Rome",
    "s_lat": 41.89595563,
    "s_lon": 12.48325842,
    "s_pop": 1687226,
    "s_country": "Italy",
    "s_Volume": 800446,
    "e_city_id": 97,
    "e_City": "Marbella",
    "e_lat": 36.51661989,
    "e_lon": -4.88333012,
    "e_pop": 153069.5,
    "e_country": "Spain",
    "e_vol": 1
  },
  {
    "s_city_id": 579,
    "s_city": "Rome",
    "s_lat": 41.89595563,
    "s_lon": 12.48325842,
    "s_pop": 1687226,
    "s_country": "Italy",
    "s_Volume": 800446,
    "e_city_id": 98,
    "e_City": "Marietta",
    "e_lat": 33.95561342,
    "e_lon": -84.54324813,
    "e_pop": 61360,
    "e_country": "United States of America",
    "e_vol": 1
  },
  {
    "s_city_id": 579,
    "s_city": "Rome",
    "s_lat": 41.89595563,
    "s_lon": 12.48325842,
    "s_pop": 1687226,
    "s_country": "Italy",
    "s_Volume": 800446,
    "e_city_id": 99,
    "e_City": "Maseru",
    "e_lat": -29.31667438,
    "e_lon": 27.48327307,
    "e_pop": 239839.5,
    "e_country": "Lesotho",
    "e_vol": 1
  },
  {
    "s_city_id": 579,
    "s_city": "Rome",
    "s_lat": 41.89595563,
    "s_lon": 12.48325842,
    "s_pop": 1687226,
    "s_country": "Italy",
    "s_Volume": 800446,
    "e_city_id": 100,
    "e_City": "Masvingo",
    "e_lat": -20.05961668,
    "e_lon": 30.8200203,
    "e_pop": 76300.5,
    "e_country": "Zimbabwe",
    "e_vol": 1
  },
  {
    "s_city_id": 579,
    "s_city": "Rome",
    "s_lat": 41.89595563,
    "s_lon": 12.48325842,
    "s_pop": 1687226,
    "s_country": "Italy",
    "s_Volume": 800446,
    "e_city_id": 101,
    "e_City": "Mataro",
    "e_lat": 41.53995668,
    "e_lon": 2.45002071,
    "e_pop": 149826,
    "e_country": "Spain",
    "e_vol": 1
  },
  {
    "s_city_id": 579,
    "s_city": "Rome",
    "s_lat": 41.89595563,
    "s_lon": 12.48325842,
    "s_pop": 1687226,
    "s_country": "Italy",
    "s_Volume": 800446,
    "e_city_id": 102,
    "e_City": "Matsue",
    "e_lat": 35.46699404,
    "e_lon": 133.0666475,
    "e_pop": 150527,
    "e_country": "Japan",
    "e_vol": 1
  },
  {
    "s_city_id": 579,
    "s_city": "Rome",
    "s_lat": 41.89595563,
    "s_lon": 12.48325842,
    "s_pop": 1687226,
    "s_country": "Italy",
    "s_Volume": 800446,
    "e_city_id": 103,
    "e_City": "Matsumoto",
    "e_lat": 36.2404352,
    "e_lon": 137.9700175,
    "e_pop": 217796.5,
    "e_country": "Japan",
    "e_vol": 1
  },
  {
    "s_city_id": 579,
    "s_city": "Rome",
    "s_lat": 41.89595563,
    "s_lon": 12.48325842,
    "s_pop": 1687226,
    "s_country": "Italy",
    "s_Volume": 800446,
    "e_city_id": 104,
    "e_City": "Matsuyama",
    "e_lat": 33.84554262,
    "e_lon": 132.765839,
    "e_pop": 525089,
    "e_country": "Japan",
    "e_vol": 1
  },
  {
    "s_city_id": 579,
    "s_city": "Rome",
    "s_lat": 41.89595563,
    "s_lon": 12.48325842,
    "s_pop": 1687226,
    "s_country": "Italy",
    "s_Volume": 800446,
    "e_city_id": 105,
    "e_City": "Medenine",
    "e_lat": 33.399999,
    "e_lon": 10.41669956,
    "e_pop": 61705,
    "e_country": "Tunisia",
    "e_vol": 1
  },
  {
    "s_city_id": 579,
    "s_city": "Rome",
    "s_lat": 41.89595563,
    "s_lon": 12.48325842,
    "s_pop": 1687226,
    "s_country": "Italy",
    "s_Volume": 800446,
    "e_city_id": 106,
    "e_City": "Medina",
    "e_lat": 24.49998903,
    "e_lon": 39.5800024,
    "e_pop": 1010000,
    "e_country": "Saudi Arabia",
    "e_vol": 1
  },
  {
    "s_city_id": 579,
    "s_city": "Rome",
    "s_lat": 41.89595563,
    "s_lon": 12.48325842,
    "s_pop": 1687226,
    "s_country": "Italy",
    "s_Volume": 800446,
    "e_city_id": 107,
    "e_City": "Melbourne",
    "e_lat": 28.08331036,
    "e_lon": -80.60832035,
    "e_pop": 170870,
    "e_country": "United States of America",
    "e_vol": 1
  },
  {
    "s_city_id": 579,
    "s_city": "Rome",
    "s_lat": 41.89595563,
    "s_lon": 12.48325842,
    "s_pop": 1687226,
    "s_country": "Italy",
    "s_Volume": 800446,
    "e_city_id": 108,
    "e_City": "Melbourne",
    "e_lat": -37.82003131,
    "e_lon": 144.9750162,
    "e_pop": 2131812.5,
    "e_country": "Australia",
    "e_vol": 1
  },
  {
    "s_city_id": 579,
    "s_city": "Rome",
    "s_lat": 41.89595563,
    "s_lon": 12.48325842,
    "s_pop": 1687226,
    "s_country": "Italy",
    "s_Volume": 800446,
    "e_city_id": 109,
    "e_City": "Metairie",
    "e_lat": 29.98386619,
    "e_lon": -90.15277653,
    "e_pop": 270171,
    "e_country": "United States of America",
    "e_vol": 1
  },
  {
    "s_city_id": 103,
    "s_city": "Berlin",
    "s_lat": 52.52181866,
    "s_lon": 13.40154862,
    "s_pop": 3250007,
    "s_country": "Germany",
    "s_Volume": 904561,
    "e_city_id": 110,
    "e_City": "Tacoma",
    "e_lat": 47.21131594,
    "e_lon": -122.5150131,
    "e_pop": 460273,
    "e_country": "United States of America",
    "e_vol": 1
  },
  {
    "s_city_id": 103,
    "s_city": "Berlin",
    "s_lat": 52.52181866,
    "s_lon": 13.40154862,
    "s_pop": 3250007,
    "s_country": "Germany",
    "s_Volume": 904561,
    "e_city_id": 111,
    "e_City": "Vancouver",
    "e_lat": 49.27341658,
    "e_lon": -123.1216442,
    "e_pop": 1458415,
    "e_country": "Canada",
    "e_vol": 1
  },
  {
    "s_city_id": 103,
    "s_city": "Berlin",
    "s_lat": 52.52181866,
    "s_lon": 13.40154862,
    "s_pop": 3250007,
    "s_country": "Germany",
    "s_Volume": 904561,
    "e_city_id": 112,
    "e_City": "Columbia",
    "e_lat": 38.95207847,
    "e_lon": -92.33390955,
    "e_pop": 244754,
    "e_country": "United States of America",
    "e_vol": 1
  },
  {
    "s_city_id": 103,
    "s_city": "Berlin",
    "s_lat": 52.52181866,
    "s_lon": 13.40154862,
    "s_pop": 3250007,
    "s_country": "Germany",
    "s_Volume": 904561,
    "e_city_id": 113,
    "e_City": "Adapazari",
    "e_lat": 40.79997601,
    "e_lon": 30.4150321,
    "e_pop": 260109,
    "e_country": "Turkey",
    "e_vol": 1
  },
  {
    "s_city_id": 103,
    "s_city": "Berlin",
    "s_lat": 52.52181866,
    "s_lon": 13.40154862,
    "s_pop": 3250007,
    "s_country": "Germany",
    "s_Volume": 904561,
    "e_city_id": 114,
    "e_City": "Adelaide",
    "e_lat": -34.93498777,
    "e_lon": 138.6000048,
    "e_pop": 990677,
    "e_country": "Australia",
    "e_vol": 1
  },
  {
    "s_city_id": 103,
    "s_city": "Berlin",
    "s_lat": 52.52181866,
    "s_lon": 13.40154862,
    "s_pop": 3250007,
    "s_country": "Germany",
    "s_Volume": 904561,
    "e_city_id": 115,
    "e_City": "Aguascalientes",
    "e_lat": 21.87945992,
    "e_lon": -102.2904135,
    "e_pop": 763589.5,
    "e_country": "Mexico",
    "e_vol": 1
  },
  {
    "s_city_id": 103,
    "s_city": "Berlin",
    "s_lat": 52.52181866,
    "s_lon": 13.40154862,
    "s_pop": 3250007,
    "s_country": "Germany",
    "s_Volume": 904561,
    "e_city_id": 116,
    "e_City": "Akron",
    "e_lat": 41.07039878,
    "e_lon": -81.51999597,
    "e_pop": 451155,
    "e_country": "United States of America",
    "e_vol": 1
  },
  {
    "s_city_id": 103,
    "s_city": "Berlin",
    "s_lat": 52.52181866,
    "s_lon": 13.40154862,
    "s_pop": 3250007,
    "s_country": "Germany",
    "s_Volume": 904561,
    "e_city_id": 117,
    "e_City": "Al Ahmadi",
    "e_lat": 29.0769448,
    "e_lon": 48.08377274,
    "e_pop": 68763,
    "e_country": "Kuwait",
    "e_vol": 1
  },
  {
    "s_city_id": 103,
    "s_city": "Berlin",
    "s_lat": 52.52181866,
    "s_lon": 13.40154862,
    "s_pop": 3250007,
    "s_country": "Germany",
    "s_Volume": 904561,
    "e_city_id": 118,
    "e_City": "Al Jahra",
    "e_lat": 29.33747154,
    "e_lon": 47.6580623,
    "e_pop": 194193,
    "e_country": "Kuwait",
    "e_vol": 1
  },
  {
    "s_city_id": 103,
    "s_city": "Berlin",
    "s_lat": 52.52181866,
    "s_lon": 13.40154862,
    "s_pop": 3250007,
    "s_country": "Germany",
    "s_Volume": 904561,
    "e_city_id": 119,
    "e_City": "Albacete",
    "e_lat": 39.00034426,
    "e_lon": -1.869999839,
    "e_pop": 127597,
    "e_country": "Spain",
    "e_vol": 1
  },
  {
    "s_city_id": 103,
    "s_city": "Berlin",
    "s_lat": 52.52181866,
    "s_lon": 13.40154862,
    "s_pop": 3250007,
    "s_country": "Germany",
    "s_Volume": 904561,
    "e_city_id": 120,
    "e_City": "Albany",
    "e_lat": 42.67001691,
    "e_lon": -73.81994918,
    "e_pop": 484286,
    "e_country": "United States of America",
    "e_vol": 1
  },
  {
    "s_city_id": 103,
    "s_city": "Berlin",
    "s_lat": 52.52181866,
    "s_lon": 13.40154862,
    "s_pop": 3250007,
    "s_country": "Germany",
    "s_Volume": 904561,
    "e_city_id": 1,
    "e_City": "Alexandria",
    "e_lat": 38.82043276,
    "e_lon": -77.09998153,
    "e_pop": 127273,
    "e_country": "United States of America",
    "e_vol": 1
  },
  {
    "s_city_id": 103,
    "s_city": "Berlin",
    "s_lat": 52.52181866,
    "s_lon": 13.40154862,
    "s_pop": 3250007,
    "s_country": "Germany",
    "s_Volume": 904561,
    "e_city_id": 122,
    "e_City": "Algeciras",
    "e_lat": 36.12671215,
    "e_lon": -5.466530363,
    "e_pop": 106687.5,
    "e_country": "Spain",
    "e_vol": 1
  },
  {
    "s_city_id": 103,
    "s_city": "Berlin",
    "s_lat": 52.52181866,
    "s_lon": 13.40154862,
    "s_pop": 3250007,
    "s_country": "Germany",
    "s_Volume": 904561,
    "e_city_id": 123,
    "e_City": "Algiers",
    "e_lat": 36.7630648,
    "e_lon": 3.05055253,
    "e_pop": 2665831.5,
    "e_country": "Algeria",
    "e_vol": 1
  },
  {
    "s_city_id": 103,
    "s_city": "Berlin",
    "s_lat": 52.52181866,
    "s_lon": 13.40154862,
    "s_pop": 3250007,
    "s_country": "Germany",
    "s_Volume": 904561,
    "e_city_id": 124,
    "e_City": "Allentown",
    "e_lat": 40.59998822,
    "e_lon": -75.50002751,
    "e_pop": 300980.5,
    "e_country": "United States of America",
    "e_vol": 1
  },
  {
    "s_city_id": 103,
    "s_city": "Berlin",
    "s_lat": 52.52181866,
    "s_lon": 13.40154862,
    "s_pop": 3250007,
    "s_country": "Germany",
    "s_Volume": 904561,
    "e_city_id": 125,
    "e_City": "Gisenyi",
    "e_lat": -1.684665915,
    "e_lon": 29.26290605,
    "e_pop": 83623,
    "e_country": "Rwanda",
    "e_vol": 1
  },
  {
    "s_city_id": 103,
    "s_city": "Berlin",
    "s_lat": 52.52181866,
    "s_lon": 13.40154862,
    "s_pop": 3250007,
    "s_country": "Germany",
    "s_Volume": 904561,
    "e_city_id": 126,
    "e_City": "Gitarama",
    "e_lat": -2.069603659,
    "e_lon": 29.75998165,
    "e_pop": 87613,
    "e_country": "Rwanda",
    "e_vol": 1
  },
  {
    "s_city_id": 103,
    "s_city": "Berlin",
    "s_lat": 52.52181866,
    "s_lon": 13.40154862,
    "s_pop": 3250007,
    "s_country": "Germany",
    "s_Volume": 904561,
    "e_city_id": 127,
    "e_City": "Gliwice",
    "e_lat": 50.3303762,
    "e_lon": 18.67001257,
    "e_pop": 353252.5,
    "e_country": "Poland",
    "e_vol": 1
  },
  {
    "s_city_id": 103,
    "s_city": "Berlin",
    "s_lat": 52.52181866,
    "s_lon": 13.40154862,
    "s_pop": 3250007,
    "s_country": "Germany",
    "s_Volume": 904561,
    "e_city_id": 128,
    "e_City": "Gold Coast",
    "e_lat": -28.08150429,
    "e_lon": 153.4482458,
    "e_pop": 429954.5,
    "e_country": "Australia",
    "e_vol": 1
  },
  {
    "s_city_id": 103,
    "s_city": "Berlin",
    "s_lat": 52.52181866,
    "s_lon": 13.40154862,
    "s_pop": 3250007,
    "s_country": "Germany",
    "s_Volume": 904561,
    "e_city_id": 129,
    "e_City": "Goya",
    "e_lat": -29.13999266,
    "e_lon": -59.26998458,
    "e_pop": 71274.5,
    "e_country": "Argentina",
    "e_vol": 1
  },
  {
    "s_city_id": 103,
    "s_city": "Berlin",
    "s_lat": 52.52181866,
    "s_lon": 13.40154862,
    "s_pop": 3250007,
    "s_country": "Germany",
    "s_Volume": 904561,
    "e_city_id": 130,
    "e_City": "Graz",
    "e_lat": 47.0777582,
    "e_lon": 15.41000484,
    "e_pop": 242780,
    "e_country": "Austria",
    "e_vol": 1
  },
  {
    "s_city_id": 103,
    "s_city": "Berlin",
    "s_lat": 52.52181866,
    "s_lon": 13.40154862,
    "s_pop": 3250007,
    "s_country": "Germany",
    "s_Volume": 904561,
    "e_city_id": 131,
    "e_City": "Great Falls",
    "e_lat": 47.50029055,
    "e_lon": -111.299987,
    "e_pop": 61316.5,
    "e_country": "United States of America",
    "e_vol": 1
  },
  {
    "s_city_id": 103,
    "s_city": "Berlin",
    "s_lat": 52.52181866,
    "s_lon": 13.40154862,
    "s_pop": 3250007,
    "s_country": "Germany",
    "s_Volume": 904561,
    "e_city_id": 132,
    "e_City": "Greeley",
    "e_lat": 40.41919822,
    "e_lon": -104.739974,
    "e_pop": 106142.5,
    "e_country": "United States of America",
    "e_vol": 1
  },
  {
    "s_city_id": 103,
    "s_city": "Berlin",
    "s_lat": 52.52181866,
    "s_lon": 13.40154862,
    "s_pop": 3250007,
    "s_country": "Germany",
    "s_Volume": 904561,
    "e_city_id": 133,
    "e_City": "Greensboro",
    "e_lat": 36.07000633,
    "e_lon": -79.80002344,
    "e_pop": 310328,
    "e_country": "United States of America",
    "e_vol": 1
  },
  {
    "s_city_id": 103,
    "s_city": "Berlin",
    "s_lat": 52.52181866,
    "s_lon": 13.40154862,
    "s_pop": 3250007,
    "s_country": "Germany",
    "s_Volume": 904561,
    "e_city_id": 134,
    "e_City": "Greenville",
    "e_lat": 35.61287661,
    "e_lon": -77.3666836,
    "e_pop": 81661,
    "e_country": "United States of America",
    "e_vol": 1
  },
  {
    "s_city_id": 373,
    "s_city": "Mendoza",
    "s_lat": -32.88333006,
    "s_lon": -68.81661117,
    "s_pop": 827815,
    "s_country": "Argentina",
    "s_Volume": 987654,
    "e_city_id": 135,
    "e_City": "San Pedro de Macoris",
    "e_lat": 18.4503583,
    "e_lon": -69.29996668,
    "e_pop": 211019.5,
    "e_country": "Dominican Republic",
    "e_vol": 1
  },
  {
    "s_city_id": 373,
    "s_city": "Mendoza",
    "s_lat": -32.88333006,
    "s_lon": -68.81661117,
    "s_pop": 827815,
    "s_country": "Argentina",
    "s_Volume": 987654,
    "e_city_id": 136,
    "e_City": "Stockton",
    "e_lat": 37.95813397,
    "e_lon": -121.289739,
    "e_pop": 488506.5,
    "e_country": "United States of America",
    "e_vol": 1
  },
  {
    "s_city_id": 373,
    "s_city": "Mendoza",
    "s_lat": -32.88333006,
    "s_lon": -68.81661117,
    "s_pop": 827815,
    "s_country": "Argentina",
    "s_Volume": 987654,
    "e_city_id": 137,
    "e_City": "Usti Nad Labem",
    "e_lat": 50.66299816,
    "e_lon": 14.08100455,
    "e_pop": 94105,
    "e_country": "Czech Republic",
    "e_vol": 1
  },
  {
    "s_city_id": 373,
    "s_city": "Mendoza",
    "s_lat": -32.88333006,
    "s_lon": -68.81661117,
    "s_pop": 827815,
    "s_country": "Argentina",
    "s_Volume": 987654,
    "e_city_id": 138,
    "e_City": "Mexicali",
    "e_lat": 32.64998252,
    "e_lon": -115.4800161,
    "e_pop": 736138.5,
    "e_country": "Mexico",
    "e_vol": 1
  },
  {
    "s_city_id": 373,
    "s_city": "Mendoza",
    "s_lat": -32.88333006,
    "s_lon": -68.81661117,
    "s_pop": 827815,
    "s_country": "Argentina",
    "s_Volume": 987654,
    "e_city_id": 139,
    "e_City": "Middlesbrough",
    "e_lat": 54.58037518,
    "e_lon": -1.230013063,
    "e_pop": 279374.5,
    "e_country": "United Kingdom",
    "e_vol": 1
  },
  {
    "s_city_id": 373,
    "s_city": "Mendoza",
    "s_lat": -32.88333006,
    "s_lon": -68.81661117,
    "s_pop": 827815,
    "s_country": "Argentina",
    "s_Volume": 987654,
    "e_city_id": 140,
    "e_City": "Midland",
    "e_lat": 32.030718,
    "e_lon": -102.0974996,
    "e_pop": 98141.5,
    "e_country": "United States of America",
    "e_vol": 1
  },
  {
    "s_city_id": 373,
    "s_city": "Mendoza",
    "s_lat": -32.88333006,
    "s_lon": -68.81661117,
    "s_pop": 827815,
    "s_country": "Argentina",
    "s_Volume": 987654,
    "e_city_id": 141,
    "e_City": "Mito",
    "e_lat": 36.37042727,
    "e_lon": 140.4800451,
    "e_pop": 300215,
    "e_country": "Japan",
    "e_vol": 1
  },
  {
    "s_city_id": 373,
    "s_city": "Mendoza",
    "s_lat": -32.88333006,
    "s_lon": -68.81661117,
    "s_pop": 827815,
    "s_country": "Argentina",
    "s_Volume": 987654,
    "e_city_id": 142,
    "e_City": "Moca",
    "e_lat": 19.39699814,
    "e_lon": -70.52300059,
    "e_pop": 61834,
    "e_country": "Dominican Republic",
    "e_vol": 1
  },
  {
    "s_city_id": 373,
    "s_city": "Mendoza",
    "s_lat": -32.88333006,
    "s_lon": -68.81661117,
    "s_pop": 827815,
    "s_country": "Argentina",
    "s_Volume": 987654,
    "e_city_id": 143,
    "e_City": "Modesto",
    "e_lat": 37.65541343,
    "e_lon": -120.9899899,
    "e_pop": 269697,
    "e_country": "United States of America",
    "e_vol": 1
  },
  {
    "s_city_id": 373,
    "s_city": "Mendoza",
    "s_lat": -32.88333006,
    "s_lon": -68.81661117,
    "s_pop": 827815,
    "s_country": "Argentina",
    "s_Volume": 987654,
    "e_city_id": 144,
    "e_City": "Mombasa",
    "e_lat": -4.040026022,
    "e_lon": 39.68991817,
    "e_pop": 840834,
    "e_country": "Kenya",
    "e_vol": 1
  },
  {
    "s_city_id": 373,
    "s_city": "Mendoza",
    "s_lat": -32.88333006,
    "s_lon": -68.81661117,
    "s_pop": 827815,
    "s_country": "Argentina",
    "s_Volume": 987654,
    "e_city_id": 145,
    "e_City": "Rio Largo",
    "e_lat": -9.48000405,
    "e_lon": -35.83996769,
    "e_pop": 110966,
    "e_country": "Brazil",
    "e_vol": 1
  },
  {
    "s_city_id": 373,
    "s_city": "Mendoza",
    "s_lat": -32.88333006,
    "s_lon": -68.81661117,
    "s_pop": 827815,
    "s_country": "Argentina",
    "s_Volume": 987654,
    "e_city_id": 146,
    "e_City": "Shenzhen",
    "e_lat": 22.55237051,
    "e_lon": 114.1221231,
    "e_pop": 4291796,
    "e_country": "China",
    "e_vol": 1
  }
 ]